<?xml version="1.0" encoding="utf-8"?>
<ArrayOfVolunteer xmlns:xsi="http://www.w3.org/2001/XMLSchema-instance" xmlns:xsd="http://www.w3.org/2001/XMLSchema">
  <Volunteer>
    <Id>549854447</Id>
    <Name>Yaakov Cohen</Name>
    <Phone>053667580</Phone>
    <Email>yaakov.cohen@email.com</Email>
    <Password>cByA!GD!0owG</Password>
    <Address>Atsil 13, Jerusalem</Address>
    <Latitude>31.7735</Latitude>
    <Longitude>35.208</Longitude>
    <Position>Manager</Position>
    <Active>true</Active>
    <MaxResponseDistance>25.793843552599345</MaxResponseDistance>
    <TypeOfDistance>AirDistance</TypeOfDistance>
  </Volunteer>
  <Volunteer>
    <Id>142133053</Id>
    <Name>Miriam Levy</Name>
    <Phone>051583108</Phone>
    <Email>miriam.levy@email.com</Email>
    <Password>zb3cL33E4Gb)</Password>
    <Address>King David Street 7, Jerusalem</Address>
    <Latitude>31.7685</Latitude>
    <Longitude>35.213</Longitude>
    <Position>Volunteer</Position>
    <Active>true</Active>
    <MaxResponseDistance>25.728249492055234</MaxResponseDistance>
    <TypeOfDistance>AirDistance</TypeOfDistance>
  </Volunteer>
  <Volunteer>
    <Id>616096419</Id>
    <Name>Avraham Ben-David</Name>
    <Phone>054289322</Phone>
    <Email>avraham.ben-david@email.com</Email>
    <Password>yw6a$8fSm8D0</Password>
    <Address>Ben Yehuda Street 45, Jerusalem</Address>
    <Latitude>31.776</Latitude>
    <Longitude>35.2215</Longitude>
    <Position>Volunteer</Position>
    <Active>true</Active>
    <MaxResponseDistance>25.330555287433114</MaxResponseDistance>
    <TypeOfDistance>AirDistance</TypeOfDistance>
  </Volunteer>
  <Volunteer>
    <Id>371597576</Id>
    <Name>Sarah Shalom</Name>
    <Phone>056638070</Phone>
    <Email>sarah.shalom@email.com</Email>
    <Password>!^WA68%N4FY8</Password>
    <Address>Jaffa Street 56, Jerusalem</Address>
    <Latitude>31.781</Latitude>
    <Longitude>35.216</Longitude>
    <Position>Volunteer</Position>
    <Active>true</Active>
    <MaxResponseDistance>9.283313578163854</MaxResponseDistance>
    <TypeOfDistance>AirDistance</TypeOfDistance>
  </Volunteer>
  <Volunteer>
    <Id>778112624</Id>
    <Name>Chaim Adler</Name>
    <Phone>053751748</Phone>
    <Email>chaim.adler@email.com</Email>
    <Password>*07Drg(YoXOO</Password>
    <Address>Agrippas Street 22, Jerusalem</Address>
    <Latitude>31.773</Latitude>
    <Longitude>35.225</Longitude>
    <Position>Volunteer</Position>
    <Active>true</Active>
    <MaxResponseDistance>41.63894647468735</MaxResponseDistance>
    <TypeOfDistance>AirDistance</TypeOfDistance>
  </Volunteer>
  <Volunteer>
    <Id>736174727</Id>
    <Name>Ruth Klein</Name>
    <Phone>056771518</Phone>
    <Email>ruth.klein@email.com</Email>
    <Password>hbnY!KevWTx(</Password>
    <Address>Shmuel Hanavi Street 5, Jerusalem</Address>
    <Latitude>31.78</Latitude>
    <Longitude>35.2205</Longitude>
    <Position>Volunteer</Position>
    <Active>true</Active>
    <MaxResponseDistance>25.4094722185192</MaxResponseDistance>
    <TypeOfDistance>AirDistance</TypeOfDistance>
  </Volunteer>
  <Volunteer>
    <Id>939531591</Id>
    <Name>David Katz</Name>
    <Phone>057562456</Phone>
    <Email>david.katz@email.com</Email>
    <Password>jOP$wfVCTK36</Password>
    <Address>Yehuda Halevi Street 3, Jerusalem</Address>
    <Latitude>31.7775</Latitude>
    <Longitude>35.2225</Longitude>
    <Position>Volunteer</Position>
    <Active>true</Active>
    <MaxResponseDistance>13.361752212546962</MaxResponseDistance>
    <TypeOfDistance>AirDistance</TypeOfDistance>
  </Volunteer>
  <Volunteer>
    <Id>188671188</Id>
    <Name>Esther Goldstein</Name>
    <Phone>051695947</Phone>
    <Email>esther.goldstein@email.com</Email>
    <Password>0YyuQ0@uuV4e</Password>
    <Address>Hillel Street 19, Jerusalem</Address>
    <Latitude>31.7745</Latitude>
    <Longitude>35.227</Longitude>
    <Position>Volunteer</Position>
    <Active>true</Active>
    <MaxResponseDistance>7.404129935489662</MaxResponseDistance>
    <TypeOfDistance>AirDistance</TypeOfDistance>
  </Volunteer>
  <Volunteer>
    <Id>159039863</Id>
    <Name>Moshe Fogel</Name>
    <Phone>054212824</Phone>
    <Email>moshe.fogel@email.com</Email>
    <Password>Ke9iu!eLKtuF</Password>
    <Address>Ramban Street 9, Jerusalem</Address>
    <Latitude>31.779</Latitude>
    <Longitude>35.229</Longitude>
    <Position>Volunteer</Position>
    <Active>true</Active>
    <MaxResponseDistance>44.90482494614708</MaxResponseDistance>
    <TypeOfDistance>AirDistance</TypeOfDistance>
  </Volunteer>
  <Volunteer>
    <Id>669331712</Id>
    <Name>Tova Levi</Name>
    <Phone>055844941</Phone>
    <Email>tova.levi@email.com</Email>
    <Password>9JjyTfCaqGX3</Password>
    <Address>Strauss Street 12, Jerusalem</Address>
    <Latitude>31.7715</Latitude>
    <Longitude>35.2135</Longitude>
    <Position>Volunteer</Position>
    <Active>true</Active>
    <MaxResponseDistance>13.687410981149323</MaxResponseDistance>
    <TypeOfDistance>AirDistance</TypeOfDistance>
  </Volunteer>
  <Volunteer>
    <Id>697690870</Id>
    <Name>Yitzhak Mizrahi</Name>
    <Phone>053060972</Phone>
    <Email>yitzhak.mizrahi@email.com</Email>
    <Password>aQVV9^K*qqkY</Password>
    <Address>Yafo Road 34, Jerusalem</Address>
    <Latitude>31.7755</Latitude>
    <Longitude>35.21</Longitude>
    <Position>Volunteer</Position>
    <Active>true</Active>
    <MaxResponseDistance>30.194938961158087</MaxResponseDistance>
    <TypeOfDistance>AirDistance</TypeOfDistance>
  </Volunteer>
  <Volunteer>
    <Id>173516244</Id>
    <Name>Naomi Rosen</Name>
    <Phone>055782551</Phone>
    <Email>naomi.rosen@email.com</Email>
    <Password>(bwul%Go9QBx</Password>
    <Address>Kehilat Yaakov Street 8, Jerusalem</Address>
    <Latitude>31.773</Latitude>
    <Longitude>35.2295</Longitude>
    <Position>Volunteer</Position>
    <Active>true</Active>
    <MaxResponseDistance>18.238624732727754</MaxResponseDistance>
    <TypeOfDistance>AirDistance</TypeOfDistance>
  </Volunteer>
  <Volunteer>
    <Id>376219494</Id>
    <Name>Yehuda Friedman</Name>
    <Phone>054474453</Phone>
    <Email>yehuda.friedman@email.com</Email>
    <Password>9tReRIMTYG7c</Password>
    <Address>Mordechai Ben Hillel Street 11, Jerusalem</Address>
    <Latitude>31.7705</Latitude>
    <Longitude>35.224</Longitude>
    <Position>Volunteer</Position>
    <Active>true</Active>
    <MaxResponseDistance>49.626482086897305</MaxResponseDistance>
    <TypeOfDistance>AirDistance</TypeOfDistance>
  </Volunteer>
  <Volunteer>
    <Id>648078833</Id>
    <Name>Shoshana Cohen</Name>
    <Phone>055540226</Phone>
    <Email>shoshana.cohen@email.com</Email>
    <Password>qlERiBeGsYiS</Password>
    <Address>Keren Hayesod Street 16, Jerusalem</Address>
    <Latitude>31.7795</Latitude>
    <Longitude>35.2265</Longitude>
    <Position>Volunteer</Position>
    <Active>true</Active>
    <MaxResponseDistance>19.391479292683883</MaxResponseDistance>
    <TypeOfDistance>AirDistance</TypeOfDistance>
  </Volunteer>
  <Volunteer>
    <Id>462889961</Id>
    <Name>Eliezer Glick</Name>
    <Phone>058188812</Phone>
    <Email>eliezer.glick@email.com</Email>
    <Password>nI9EOb9yW6Sl</Password>
    <Address>Shazar Boulevard 21, Jerusalem</Address>
    <Latitude>31.772</Latitude>
    <Longitude>35.2175</Longitude>
    <Position>Volunteer</Position>
    <Active>true</Active>
    <MaxResponseDistance>33.70978230024871</MaxResponseDistance>
    <TypeOfDistance>AirDistance</TypeOfDistance>
  </Volunteer>
  <Volunteer>
    <Id>688629082</Id>
    <Name>Chava Shapiro</Name>
    <Phone>059689787</Phone>
    <Email>chava.shapiro@email.com</Email>
    <Password>6xfWmZAH#!yu</Password>
    <Address>25 Shlomzion Hamalka Street, Jerusalem:</Address>
    <Latitude>31.7765</Latitude>
    <Longitude>35.2045</Longitude>
    <Position>Volunteer</Position>
    <Active>true</Active>
    <MaxResponseDistance>31.972026757564443</MaxResponseDistance>
    <TypeOfDistance>AirDistance</TypeOfDistance>
  </Volunteer>
</ArrayOfVolunteer>