<?xml version="1.0" encoding="utf-8"?>
<ArrayOfVolunteer xmlns:xsi="http://www.w3.org/2001/XMLSchema-instance" xmlns:xsd="http://www.w3.org/2001/XMLSchema">
  <Volunteer>
    <Id>108866804</Id>
    <Name>Yaakov Cohen</Name>
    <Phone>057950695</Phone>
    <Email>yaakov.cohen@email.com</Email>
    <Password>E2Lb7e^lrs4k</Password>
    <Address>Atsil 13, Jerusalem</Address>
    <Latitude>31.7735</Latitude>
    <Longitude>35.208</Longitude>
    <Position>Manager</Position>
    <Active>true</Active>
    <MaxResponseDistance>17.780669131833882</MaxResponseDistance>
    <TypeOfDistance>AirDistance</TypeOfDistance>
  </Volunteer>
  <Volunteer>
    <Id>453351175</Id>
    <Name>Miriam Levy</Name>
    <Phone>059280516</Phone>
    <Email>miriam.levy@email.com</Email>
    <Password>*d%alOUkfaKw</Password>
    <Address>King David Street 7, Jerusalem</Address>
    <Latitude>31.7685</Latitude>
    <Longitude>35.213</Longitude>
    <Position>Volunteer</Position>
    <Active>true</Active>
    <MaxResponseDistance>34.03237432067916</MaxResponseDistance>
    <TypeOfDistance>AirDistance</TypeOfDistance>
  </Volunteer>
  <Volunteer>
    <Id>256971897</Id>
    <Name>Avraham Ben-David</Name>
    <Phone>055404966</Phone>
    <Email>avraham.ben-david@email.com</Email>
    <Password>vq)izB8^^B(B</Password>
    <Address>Ben Yehuda Street 45, Jerusalem</Address>
    <Latitude>31.776</Latitude>
    <Longitude>35.2215</Longitude>
    <Position>Volunteer</Position>
    <Active>true</Active>
    <MaxResponseDistance>9.60821695355532</MaxResponseDistance>
    <TypeOfDistance>AirDistance</TypeOfDistance>
  </Volunteer>
  <Volunteer>
    <Id>525361568</Id>
    <Name>Sarah Shalom</Name>
    <Phone>058632463</Phone>
    <Email>sarah.shalom@email.com</Email>
    <Password>bj9UE4vZk2BU</Password>
    <Address>Jaffa Street 56, Jerusalem</Address>
    <Latitude>31.781</Latitude>
    <Longitude>35.216</Longitude>
    <Position>Volunteer</Position>
    <Active>true</Active>
    <MaxResponseDistance>47.3226460153395</MaxResponseDistance>
    <TypeOfDistance>AirDistance</TypeOfDistance>
  </Volunteer>
  <Volunteer>
    <Id>329241167</Id>
    <Name>Chaim Adler</Name>
    <Phone>055548630</Phone>
    <Email>chaim.adler@email.com</Email>
    <Password>q)DvowFl*4U%</Password>
    <Address>Agrippas Street 22, Jerusalem</Address>
    <Latitude>31.773</Latitude>
    <Longitude>35.225</Longitude>
    <Position>Volunteer</Position>
    <Active>true</Active>
    <MaxResponseDistance>31.831104242115444</MaxResponseDistance>
    <TypeOfDistance>AirDistance</TypeOfDistance>
  </Volunteer>
  <Volunteer>
    <Id>968972222</Id>
    <Name>Ruth Klein</Name>
    <Phone>058710113</Phone>
    <Email>ruth.klein@email.com</Email>
    <Password>gYBFbbF)i@OO</Password>
    <Address>Shmuel Hanavi Street 5, Jerusalem</Address>
    <Latitude>31.78</Latitude>
    <Longitude>35.2205</Longitude>
    <Position>Volunteer</Position>
    <Active>true</Active>
    <MaxResponseDistance>38.663149860448556</MaxResponseDistance>
    <TypeOfDistance>AirDistance</TypeOfDistance>
  </Volunteer>
  <Volunteer>
    <Id>905785222</Id>
    <Name>David Katz</Name>
    <Phone>059325468</Phone>
    <Email>david.katz@email.com</Email>
    <Password>q(s0^Tc&amp;1Y$K</Password>
    <Address>Yehuda Halevi Street 3, Jerusalem</Address>
    <Latitude>31.7775</Latitude>
    <Longitude>35.2225</Longitude>
    <Position>Volunteer</Position>
    <Active>true</Active>
    <MaxResponseDistance>42.4367267689191</MaxResponseDistance>
    <TypeOfDistance>AirDistance</TypeOfDistance>
  </Volunteer>
  <Volunteer>
    <Id>168393109</Id>
    <Name>Esther Goldstein</Name>
    <Phone>052837425</Phone>
    <Email>esther.goldstein@email.com</Email>
    <Password>l70r6Ee(M0Q(</Password>
    <Address>Hillel Street 19, Jerusalem</Address>
    <Latitude>31.7745</Latitude>
    <Longitude>35.227</Longitude>
    <Position>Volunteer</Position>
    <Active>true</Active>
    <MaxResponseDistance>29.20965949616931</MaxResponseDistance>
    <TypeOfDistance>AirDistance</TypeOfDistance>
  </Volunteer>
  <Volunteer>
    <Id>729583759</Id>
    <Name>Moshe Fogel</Name>
    <Phone>058847059</Phone>
    <Email>moshe.fogel@email.com</Email>
    <Password>pPH^NhWHJPYJ</Password>
    <Address>Ramban Street 9, Jerusalem</Address>
    <Latitude>31.779</Latitude>
    <Longitude>35.229</Longitude>
    <Position>Volunteer</Position>
    <Active>true</Active>
    <MaxResponseDistance>8.954464450104249</MaxResponseDistance>
    <TypeOfDistance>AirDistance</TypeOfDistance>
  </Volunteer>
  <Volunteer>
    <Id>624356146</Id>
    <Name>Tova Levi</Name>
    <Phone>058096349</Phone>
    <Email>tova.levi@email.com</Email>
    <Password>bJLYV!$ep8ih</Password>
    <Address>Strauss Street 12, Jerusalem</Address>
    <Latitude>31.7715</Latitude>
    <Longitude>35.2135</Longitude>
    <Position>Volunteer</Position>
    <Active>true</Active>
    <MaxResponseDistance>4.324876366109137</MaxResponseDistance>
    <TypeOfDistance>AirDistance</TypeOfDistance>
  </Volunteer>
  <Volunteer>
    <Id>485421775</Id>
    <Name>Yitzhak Mizrahi</Name>
    <Phone>055506038</Phone>
    <Email>yitzhak.mizrahi@email.com</Email>
    <Password>EFCJkkydnpP!</Password>
    <Address>Yafo Road 34, Jerusalem</Address>
    <Latitude>31.7755</Latitude>
    <Longitude>35.21</Longitude>
    <Position>Volunteer</Position>
    <Active>true</Active>
    <MaxResponseDistance>33.91193179936952</MaxResponseDistance>
    <TypeOfDistance>AirDistance</TypeOfDistance>
  </Volunteer>
  <Volunteer>
    <Id>946484671</Id>
    <Name>Naomi Rosen</Name>
    <Phone>055208835</Phone>
    <Email>naomi.rosen@email.com</Email>
    <Password>gAY1p3zT^!XP</Password>
    <Address>Kehilat Yaakov Street 8, Jerusalem</Address>
    <Latitude>31.773</Latitude>
    <Longitude>35.2295</Longitude>
    <Position>Volunteer</Position>
    <Active>true</Active>
    <MaxResponseDistance>2.168998711958631</MaxResponseDistance>
    <TypeOfDistance>AirDistance</TypeOfDistance>
  </Volunteer>
  <Volunteer>
    <Id>726086104</Id>
    <Name>Yehuda Friedman</Name>
    <Phone>054686336</Phone>
    <Email>yehuda.friedman@email.com</Email>
    <Password>Nd*7vF)TU@GZ</Password>
    <Address>Mordechai Ben Hillel Street 11, Jerusalem</Address>
    <Latitude>31.7705</Latitude>
    <Longitude>35.224</Longitude>
    <Position>Volunteer</Position>
    <Active>true</Active>
    <MaxResponseDistance>20.48936319764334</MaxResponseDistance>
    <TypeOfDistance>AirDistance</TypeOfDistance>
  </Volunteer>
  <Volunteer>
    <Id>465974796</Id>
    <Name>Shoshana Cohen</Name>
    <Phone>051006881</Phone>
    <Email>shoshana.cohen@email.com</Email>
    <Password>byHbf5dnoWEn</Password>
    <Address>Keren Hayesod Street 16, Jerusalem</Address>
    <Latitude>31.7795</Latitude>
    <Longitude>35.2265</Longitude>
    <Position>Volunteer</Position>
    <Active>true</Active>
    <MaxResponseDistance>7.394165662510844</MaxResponseDistance>
    <TypeOfDistance>AirDistance</TypeOfDistance>
  </Volunteer>
  <Volunteer>
    <Id>528970192</Id>
    <Name>Eliezer Glick</Name>
    <Phone>059339214</Phone>
    <Email>eliezer.glick@email.com</Email>
    <Password>SYUqf1Zd&amp;4g@</Password>
    <Address>Shazar Boulevard 21, Jerusalem</Address>
    <Latitude>31.772</Latitude>
    <Longitude>35.2175</Longitude>
    <Position>Volunteer</Position>
    <Active>true</Active>
    <MaxResponseDistance>22.883655218071517</MaxResponseDistance>
    <TypeOfDistance>AirDistance</TypeOfDistance>
  </Volunteer>
  <Volunteer>
    <Id>538158321</Id>
    <Name>Chava Shapiro</Name>
    <Phone>052503302</Phone>
    <Email>chava.shapiro@email.com</Email>
    <Password>Yt&amp;UWshat*lq</Password>
    <Address>25 Shlomzion Hamalka Street, Jerusalem:</Address>
    <Latitude>31.7765</Latitude>
    <Longitude>35.2045</Longitude>
    <Position>Volunteer</Position>
    <Active>true</Active>
    <MaxResponseDistance>0.43706124633264287</MaxResponseDistance>
    <TypeOfDistance>AirDistance</TypeOfDistance>
  </Volunteer>
</ArrayOfVolunteer>